Time,GPS Speed,GPS Nsat,GPS LatAcc,GPS LonAcc,GPS Slope,GPS Heading,GPS Gyro,GPS Altitude,GPS PosAccuracy,GPS SpdAccuracy,GPS Radius,GPS Latitude,GPS Longitude,FL Shock,FR Shock,BrakePressFront,BrakePressRear,Steering AnglRaw,InlineAcc,LateralAcc,VerticalAcc,RollRate,PitchRate,YawRate,SteeringAngle,BRK PRESS F,BRK PRESS R,ECU THROTTLE
0,5.553,14,0,0,-0.2315,-65.0372,0,208.4704,15.8,0.13,10000,44.49280578,-79.18132927,-9.1875,-1.6846,0.3679,0.3081,60.9688,1.0566,0.0259,-0.9692,2.4375,-0.3472,1.9775,-32.5883,327.67,327.67,61.5
0.05,5.553,14,0,0,-0.2315,-65.0372,0,208.4704,15.8,0.13,10000,44.49280578,-79.18132927,-9.1875,-1.6846,0.3679,0.3081,60.9688,1.0566,0.0259,-0.9692,2.4375,-0.3472,1.9775,-32.5883,327.67,327.67,61.5
0.1,5.553,14,0,0,-0.2315,-65.0372,0,208.4704,15.8,0.13,10000,44.49280578,-79.18132927,-9.1875,-1.6846,0.3679,0.3081,60.9688,1.0566,0.0259,-0.9692,2.4375,-0.3472,1.9775,-32.5883,327.67,327.67,61.5
0.15,5.553,14,0,0,-0.2315,-65.0372,0,208.4704,15.8,0.13,10000,44.49280578,-79.18132927,-9.1875,-1.6846,0.3679,0.3081,60.9688,1.0566,0.0259,-0.9692,2.4375,-0.3472,1.9775,-32.5883,327.67,327.67,61.5
0.2,5.553,14,0,0,-0.2315,-65.0372,0,208.4704,15.8,0.13,10000,44.49280578,-79.18132927,-9.1875,-1.6846,0.3679,0.3081,60.9688,1.0566,0.0259,-0.9692,2.4375,-0.3472,1.9775,-32.5883,327.67,327.67,61.5
0.25,5.553,14,0,0,-0.2315,-65.0372,0,208.4704,15.8,0.13,10000,44.49280578,-79.18132927,-9.1875,-1.6846,0.3679,0.3081,60.9688,1.0566,0.0259,-0.9692,2.4375,-0.3472,1.9775,-32.5883,327.67,327.67,61.5
0.3,5.553,14,0,0,-0.2315,-65.0372,0,208.4704,15.8,0.13,10000,44.49280578,-79.18132927,-9.1875,-1.6846,0.3679,0.3081,60.9688,1.0566,0.0259,-0.9692,2.4375,-0.3472,1.9775,-32.5883,327.67,327.67,61.5
0.35,5.553,14,0,0,-0.2315,-65.0372,0,208.4704,15.8,0.13,10000,44.49280578,-79.18132927,-9.1875,-1.6846,0.3679,0.3081,60.9688,1.0566,0.0259,-0.9692,2.4375,-0.3472,1.9775,-32.5883,327.67,327.67,61.5
0.4,5.553,14,0,0,-0.2315,-65.0372,0,208.4704,15.8,0.13,10000,44.49280578,-79.18132927,-9.1875,-1.6846,0.3679,0.3081,60.9688,1.0566,0.0259,-0.9692,2.437,-0.3428,1.9785,-32.5883,327.67,327.67,61.5
0.45,5.553,14,0,0,-0.2315,-65.0372,0,208.4704,15.8,0.13,10000,44.49280578,-79.18132927,-9.1875,-1.6846,0.3679,0.3081,60.9688,1.0566,0.0259,-0.9692,2.3942,-0.2022,2.0246,-32.5883,327.67,327.67,61.5
0.5,5.553,14,0,0,-0.2315,-65.0372,0,208.4704,15.8,0.13,10000,44.49280578,-79.18132927,-9.1875,-1.6846,0.3679,0.3081,60.9688,1.0566,0.0259,-0.9692,2.3145,-0.2909,2.1177,-32.5883,327.67,327.67,61.5
0.55,5.553,14,0,0,-0.2315,-65.0372,0,208.4704,15.8,0.13,10000,44.49280578,-79.18132927,-9.1875,-1.6846,0.3679,0.3081,60.9688,1.0566,0.0259,-0.9692,2.2047,-0.6262,2.2171,-32.5883,327.67,327.67,61.5
0.6,5.553,14,0,0,-0.2315,-65.0372,0,208.4704,15.8,0.13,10000,44.49280578,-79.18132927,-9.1875,-1.6846,0.3679,0.3081,60.9688,0.8607,0.0144,-0.8951,2.0924,-1.0916,2.2396,-32.5883,327.67,327.67,61.5
0.65,5.553,14,0,0,-0.2315,-65.0372,0,208.4704,15.8,0.13,10000,44.49280578,-79.18132927,-9.1875,-1.6846,0.3679,0.3081,60.9688,-0.0266,0.0217,-0.9466,2.0601,-1.4339,2.189,-32.5883,327.67,327.67,61.5
0.7,5.553,14,0,0,-0.2315,-65.0372,0,208.4704,15.8,0.13,10000,44.49280578,-79.18132927,-9.1875,-1.6846,0.3679,0.3081,60.9688,-0.036,0.0275,-1.0857,2.1329,-1.4923,2.1202,-32.5883,327.67,327.67,61.5
0.75,5.553,14,0,0,-0.2315,-65.0372,0,208.4704,15.8,0.13,10000,44.49280578,-79.18132927,-9.1875,-1.6846,0.3679,0.3081,60.9688,0.457,-0.0142,-1.0555,2.2147,-1.3045,2.1041,-32.5883,327.67,327.67,61.5
0.8,6.0379,14,0.0061,0.1374,-0.1743,-64.8136,2.2365,208.4707,15.8,0.13,42.9675,44.492806,-79.1813299,-9.1875,-1.6846,0.3679,0.3081,60.9688,0.6981,-0.03,-1.1701,2.2261,-1.121,2.1825,-32.5883,327.67,327.67,61.5
0.85,6.9705,14,0.0179,0.4017,-0.0642,-64.3835,6.5375,208.4713,15.8,0.13,16.9698,44.49280644,-79.1813311,-9.793,-1.8516,0.3736,0.3057,61.0044,0.2354,-0.0807,-1.1105,2.1801,-0.9608,2.3457,-32.5915,327.67,327.67,61.5
0.9,7.9135,14,0.0232,0.5314,-0.0252,-64.0213,7.9229,208.4753,15.774,0.13,15.8965,44.49280694,-79.18133249,-11.0391,-2.3262,0.347,0.1421,61.4856,-0.0115,-0.1107,-0.993,2.0842,-0.7613,2.5771,-32.5968,327.67,327.67,62.2744
0.95,8.866,14,0.0224,0.537,-0.052,-63.7218,6.6172,208.4825,15.724,0.13,21.3243,44.49280751,-79.18133406,-11.582,-3.0605,-1.3987,-1.7907,60.2794,-0.4037,-0.1755,-0.9879,1.9923,-0.6967,3.0221,-32.589,327.67,327.67,63.2244
1,9.9105,14,0.0026,0.5659,-0.1151,-63.874,1.4724,208.482,15.7,0.13,107.127,44.49280815,-79.1813358,-13.5625,-4.1348,-0.5093,-1.1707,60.3063,-1.9987,-0.0962,-1.0636,1.8165,-1.2871,3.8487,-32.5827,327.67,327.67,64.4467
1.05,11.0399,14,-0.0346,0.6162,-0.212,-64.4434,-7.2162,208.4746,15.7,0.13,24.3489,44.49280884,-79.18133771,-12.9297,-2.5264,-3.8687,-3.5839,61.1856,-1.0688,-0.099,-1.051,1.7245,-2.2985,5.1398,-32.5904,327.67,327.67,66.4878
1.1,12.1247,14,-0.0051,0.6283,-0.2633,-64.1267,-2.5264,208.4658,15.674,0.13,76.3821,44.49280962,-79.18133973,-11.8984,-1.0039,-5.244,-4.524,61.1338,-0.1839,-0.061,-1.1398,2.1305,-2.5923,6.8326,-32.6023,327.67,327.67,71.4322
1.15,13.1683,14,0.0861,0.605,-0.2726,-62.9921,14.5126,208.4557,15.624,0.13,14.4413,44.49281046,-79.18134186,-15.7969,-7.8418,-4.8112,-4.3681,60.7794,-0.2769,0.0383,-1.2469,2.9188,-2.0856,8.6012,-32.5988,327.67,327.67,75.3267
1.2,14.2628,14,0.0969,0.6075,-0.2731,-62.4365,16.9015,208.4542,15.6,0.13,13.4308,44.4928114,-79.18134422,-11.7891,-2.3809,-4.2161,-3.6524,60.8381,-0.143,0.0516,-1.2218,3.4824,-1.4746,10.2422,-32.5888,327.67,327.67,77.7711
1.25,15.4044,14,0.0333,0.634,-0.2655,-62.4154,5.7673,208.4604,15.6,0.13,42.5104,44.49281241,-79.18134679,-20.0391,-14.4961,-2.9201,-2.7825,62.1081,0.303,-0.0137,-1.2102,3.4287,-1.1792,11.375,-32.5898,327.67,327.67,81.1111
1.3,16.5106,14,0.0201,0.6368,-0.2771,-62.1773,2.5922,208.4595,15.574,0.13,101.3708,44.49281349,-79.1813495,-12.7305,-3.5146,-3.5407,-3.157,60.39,0.5821,-0.1444,-0.8868,2.6855,-1.4443,11.3047,-32.5937,327.67,327.67,85
1.35,17.5842,14,0.0532,0.6179,-0.3064,-61.739,6.7641,208.4519,15.524,0.13,41.3744,44.49281463,-79.18135235,-12.0625,-4.6855,-5.4301,-4.7729,60.6662,0.613,-0.0815,-0.8731,1.6221,-2.4385,9.418,-32.5981,327.67,327.67,89.9822
1.4,18.5164,14,0.0316,0.571,-0.3214,-61.7424,4.2998,208.4487,15.5,0.13,68.5379,44.4928158,-79.1813553,-8.875,-1.1228,-3.5726,-3.1345,61.245,0.5043,0.0935,-1.0086,1.0898,-3.1641,6.1289,-32.6004,327.67,327.67,95.1122
1.45,19.318,14,-0.0406,0.4983,-0.3233,-62.1536,-4.2903,208.4496,15.5,0.13,71.6625,44.49281699,-79.18135834,-12.6953,-4.1201,-5.0722,-4.4777,60.2738,0.6171,0.1117,-1.3247,1.3472,-2.4199,2.5039,-32.5966,327.67,327.67,95.7233
1.5,20.071,14,-0.0621,0.4688,-0.2909,-62.5426,-6.8825,208.4524,15.5,0.13,46.4134,44.4928182,-79.18136155,-18.9766,-15.1523,-5.4753,-4.9741,61.6081,0.7179,-0.0179,-1.3881,1.8203,-0.4973,-0.5371,-32.5887,327.67,327.67,96.2733
1.55,20.779,14,-0.0368,0.4791,-0.227,-62.9111,-3.938,208.457,15.5,0.13,83.9777,44.49281942,-79.18136491,-20.6953,-17.1719,-5.345,-4.6055,61.3156,0.4642,-0.1892,-1.2138,1.8555,1.8276,-2.3418,-32.5836,327.67,327.67,96.6067
1.6,21.6599,14,-0.0266,0.4823,-0.1838,-63.1572,-2.6622,208.458,15.474,0.13,129.4882,44.4928207,-79.18136842,-22.125,-18.7344,-1.8218,-1.4935,60.7981,0.5744,-0.1802,-1.0961,1.5308,3.6932,-2.9576,-32.5818,327.67,327.67,96.9167
1.65,22.7005,14,-0.0305,0.4788,-0.1596,-63.2903,-2.9267,208.4557,15.424,0.13,123.4461,44.49282205,-79.18137207,-6.1699,-6.8398,-3.8957,-3.5463,59.6669,0.7985,-0.2042,-1.0207,1.3419,4.4293,-2.7549,-32.5851,327.67,327.67,97.1945
1.7,23.6574,14,-0.0232,0.4791,-0.1514,-63.2339,-2.1965,208.4557,15.4,0.13,171.4162,44.49282347,-79.18137584,-14.293,-12.9219,-4.7377,-3.6746,60.82,0.6315,-0.0344,-1.1591,1.9582,3.363,-1.9879,-32.591,327.67,327.67,97.4378
1.75,24.5371,14,-0.0057,0.4829,-0.1579,-63.0025,-0.5482,208.4577,15.4,0.13,712.3423,44.49282497,-79.18137973,-5.543,-6.9863,-2.7802,-2.4716,60.9506,0.8411,0.0657,-0.957,3.5162,1.8353,-0.9643,-32.5935,327.67,327.67,97.66
1.8,25.391,14,0.0059,0.4926,-0.1338,-62.5996,0.492,208.4638,15.374,0.13,821.3192,44.49282656,-79.18138373,-5.8789,-4.5996,-3.0596,-2.7093,61.1413,0.3062,-0.051,-1.3164,5.0311,0.985,-0.1868,-32.5939,327.67,327.67,97.6544
1.85,26.2211,14,0.0119,0.5079,-0.0814,-62.0382,0.971,208.4737,15.324,0.13,429.787,44.49282824,-79.18138785,-16.8125,-13.6641,-4.7465,-4.2295,60.8631,0.7274,-0.047,-1.3395,5.5201,0.2456,0.2652,-32.5915,327.67,327.67,97.6
1.9,27.1117,14,0.0215,0.5182,-0.1015,-62.0966,1.6919,208.4702,15.3,0.13,255.0378,44.4928299,-79.18139218,-10.7539,-7.9688,-3.6709,-3.1248,60.2794,1.562,0.0015,-0.9626,5.1316,-1.2018,0.6664,-32.5922,327.67,327.67,97.6
1.95,28.0582,14,0.0345,0.5238,-0.1886,-62.7271,2.6361,208.4544,15.3,0.13,169.4018,44.49283156,-79.18139671,-9.9805,-6.6777,-4.9602,-4.298,61.6831,1.5252,-0.0054,-0.8099,4.4756,-2.9051,1.1955,-32.5996,327.67,327.67,97.6
2,29.0157,14,0.0361,0.5239,-0.2163,-62.9132,2.7123,208.4445,15.3,0.13,170.2609,44.49283329,-79.18140137,-9.9688,-5.0625,-5.1927,-4.4685,61.1362,1.4041,-0.0108,-0.8831,3.6738,-5.0469,1.8232,-32.6032,327.67,327.67,97.6
2.05,29.9834,14,0.0273,0.5188,-0.1892,-62.6891,1.9873,208.44,15.3,0.13,240.1278,44.49283509,-79.18140614,-10.8125,-3.0127,-4.1898,-4.0317,61.2675,1.5506,0.0502,-0.865,3.2041,-6.3457,2.1729,-32.5959,327.67,327.67,97.6
2.1,30.8526,14,0.0197,0.5179,-0.1865,-62.4138,1.388,208.4363,15.274,0.13,353.7719,44.49283699,-79.181411,-10.793,-3.2285,-3.596,-4.8836,60.5419,1.4304,0.0525,-0.8464,3.084,-6.0469,2.3848,-32.5913,327.67,327.67,97.6
2.15,31.6309,14,0.0132,0.5207,-0.2063,-62.0911,0.9048,208.4333,15.224,0.13,556.3978,44.49283897,-79.18141593,-12.5352,-6.9043,-5.199,-4.2273,60.2694,0.5283,0.1081,-1.1113,2.7393,-4.8516,2.6816,-32.5951,327.67,327.67,97.6
2.2,32.555,14,0.0122,0.533,-0.22,-61.996,0.7985,208.4315,15.2,0.13,648.9153,44.49284101,-79.18142109,-10.1758,-3.4609,-4.9027,-4.3371,61.0681,0.5813,-0.0477,-0.9558,2.375,-3.5918,3,-32.5976,327.67,327.67,97.6
2.25,33.6138,14,0.0164,0.554,-0.2281,-62.111,1.04,208.4308,15.2,0.13,514.3983,44.4928431,-79.18142646,-20.4453,-17.2383,-6.0183,-4.8891,61.1131,3.1414,0.0029,-0.743,2.5469,-2.6641,3.2314,-32.5949,327.67,327.67,97.6456
2.3,34.708,14,0.0263,0.5653,-0.2561,-62.0614,1.6078,208.423,15.174,0.13,343.5791,44.49284525,-79.18143197,-9.3242,-5.3594,-5.2059,-4.6248,60.445,3.8959,0.2173,-1.0186,2.6191,-2.1719,3.4434,-32.5919,327.67,327.67,97.6989
2.35,35.8347,14,0.0416,0.5678,-0.3025,-61.8597,2.4766,208.4084,15.124,0.13,230.2843,44.49284746,-79.18143761,-19.9688,-16.207,-5.2535,-4.6766,60.555,3.8504,0.1946,-1.1848,2.002,-2.2285,3.9277,-32.5966,327.67,327.67,97.6433
2.4,36.8617,14,0.0575,0.5718,-0.3105,-61.719,3.3324,208.3998,15.1,0.13,176.0517,44.49284975,-79.18144338,-15.4453,-11.5039,-5.3203,-4.5868,60.4825,4.2448,0.1985,-1.1526,1.3254,-1.989,4.7342,-32.5995,327.67,327.67,97.6
2.45,37.7968,14,0.074,0.5772,-0.2833,-61.6347,4.1761,208.3966,15.1,0.13,144.0478,44.49285211,-79.18144927,-12.1133,-6.3428,-5.4697,-4.8657,61.1237,2.1238,-0.0779,-1.0492,1.2783,-0.7032,5.3676,-32.5995,327.67,327.67,97.6
2.5,38.7563,14,0.0793,0.5856,-0.2723,-61.3856,4.379,208.395,15.1,0.13,140.8607,44.49285459,-79.18145534,-6.916,-1.0632,-5.058,-4.3943,60.1775,0.9496,-0.0258,-1.0244,1.8236,0.9117,5.4797,-32.6004,327.67,327.67,97.6
2.55,39.7383,14,0.0743,0.5966,-0.2764,-60.9843,3.9904,208.3948,15.1,0.13,158.4954,44.49285718,-79.18146158,-11.6523,-10.4727,-6.9127,-6.8224,60.9981,0.3899,0.0564,-1.0564,2.8568,1.6892,5.2133,-32.6026,327.67,327.67,97.6
2.6,40.7795,14,0.0893,0.6015,-0.2685,-60.7212,4.6273,208.3929,15.074,0.13,140.2594,44.49285981,-79.18146797,-4.2432,-7.3965,-5.503,-4.752,60.9875,0.4255,0.068,-1.0771,4.6316,1.6999,5.0822,-32.6041,327.67,327.67,97.6
2.65,41.8754,14,0.1229,0.6006,-0.2496,-60.5855,6.211,208.3893,15.024,0.13,107.3049,44.49286249,-79.1814745,-5.3926,-10.2266,-6.6302,-6.1909,61.2513,1.3479,0.1968,-1.1821,6.5412,1.3694,5.4816,-32.6006,327.67,327.67,97.6
2.7,42.998,14,0.1512,0.5961,-0.2151,-60.2226,7.4587,208.3935,15,0.13,91.7499,44.49286534,-79.18148115,-12.7412,-12.4277,-4.3705,-4.2777,60.7944,1.3789,0.283,-1.1894,7.5971,1.127,6.2449,-32.592,327.67,327.67,97.6456
2.75,44.1453,14,0.1745,0.5883,-0.1662,-59.6499,8.3964,208.4048,15,0.13,83.6784,44.49286833,-79.1814879,-12.7539,-10.6602,-4.0967,-4.0683,60.9963,0.6961,0.2015,-1.1762,8.0617,0.8122,6.8432,-32.5935,327.67,327.67,97.7
2.8,45.1931,14,0.1927,0.5861,-0.1271,-59.0763,9.0571,208.4129,15,0.13,79.4151,44.49287141,-79.18149477,-8.7656,-4.5234,-3.8749,-2.7552,60.9544,0.0956,0.1347,-1.1731,8.0781,0.2178,7.4299,-32.5944,327.67,327.67,97.7
2.85,46.1491,14,0.2061,0.5891,-0.0971,-58.5018,9.4622,208.418,15,0.13,77.6228,44.49287458,-79.18150173,-6.0352,-1.4629,-5.4373,-4.7353,61.1888,0.4514,0.1949,-1.3215,6.9051,0.0885,8.6227,-32.5934,327.67,327.67,97.7122
2.9,47.0836,14,0.2287,0.5841,-0.0761,-58.0143,10.2468,208.4236,14.974,0.13,73.1307,44.49287785,-79.18150882,-11.6992,-5.6426,-5.4902,-4.7294,60.73,0.3602,0.1853,-1.2121,5.1719,-0.154,10.091,-32.592,327.67,327.67,97.7678
2.95,47.9981,14,0.2598,0.5718,-0.0634,-57.607,11.3817,208.4295,14.924,0.13,67.1178,44.4928812,-79.18151601,-16.2305,-10.4238,-5.2016,-4.2505,60.9456,0.7677,0.28,-0.9921,3.5661,-1.7657,11.5676,-32.5927,327.67,327.67,97.8
3,49.035,14,0.2852,0.5548,-0.0536,-57.106,12.2348,208.4323,14.9,0.13,63.7868,44.49288472,-79.1815233,-10.2656,-5.2422,-2.322,-2.0007,61.5213,0.563,0.2416,-0.752,2.6704,-3.0429,13.507,-32.5944,327.67,327.67,97.8
3.05,50.1849,14,0.3053,0.5335,-0.0465,-56.5185,12.8278,208.432,14.9,0.13,62.2647,44.49288838,-79.18153067,-7.1094,-3.5254,-5.5249,-4.9777,60.8862,-0.1734,0.1822,-0.7961,2.4405,-2.5716,15.7766,-32.589,327.67,327.67,97.8
3.1,51.0108,14,0.3254,0.517,-0.0324,-55.7118,13.4089,208.4358,14.874,0.13,60.5463,44.49289216,-79.181538,-10.0381,-9.3027,-5.1027,-4.6076,61.0062,0.3005,0.2875,-1.0688,2.4604,-1.7121,17.2906,-32.5827,327.67,327.67,97.8
3.15,51.5377,14,0.3456,0.5049,-0.0119,-54.7028,13.9792,208.4432,14.824,0.13,58.6764,44.49289607,-79.18154528,-4.5488,-4.4902,-0.267,0.2614,60.1325,0.5585,0.3937,-1.2035,2.8996,-1.4767,17.3414,-32.5864,327.67,327.67,97.8
3.2,52.2886,14,0.3536,0.4856,0.0042,-53.9165,14.0636,208.449,14.8,0.13,59.1739,44.49290013,-79.1815527,-8.5898,-5.0576,-3.8385,-3.4942,60.2819,0.1624,0.4232,-1.1742,3.2158,-1.7317,16.475,-32.5902,327.67,327.67,97.6389
3.25,53.2463,14,0.3504,0.4597,0.0162,-53.3359,13.6996,208.4531,14.8,0.13,61.8589,44.49290432,-79.18156024,-11.1133,-9.625,-4.4477,-3.9339,60.7794,0.5511,0.3021,-0.9535,3.6507,-2.629,15.2094,-32.5952,327.67,327.67,89.5833
3.3,54.1756,14,0.3515,0.4296,0.0047,-52.7715,13.5235,208.451,14.8,0.1326,63.7581,44.49290859,-79.18156783,-9.1992,-6.1445,-4.903,-4.2846,60.6862,0.0385,0.2703,-0.9592,4.2615,-3.6632,14.223,-32.6023,327.67,327.67,73.1189
3.35,55.0787,14,0.3567,0.3957,-0.0287,-52.2222,13.5208,208.4433,14.8,0.1376,64.8337,44.49291295,-79.18157545,-6.5273,-2.9473,-0.0979,0.2443,59.7081,0.0468,0.3601,-0.9867,4.7285,-3.8405,13.7578,-32.6002,327.67,327.67,26.8411
3.4,55.6505,14,0.3501,0.3528,-0.0234,-51.6155,13.1019,208.445,14.774,0.14,67.6015,44.49291742,-79.18158303,-1.6143,-0.1402,-2.1714,-1.6803,60.0706,0.0471,0.3414,-1.0713,4.5744,-3.2283,13.2516,-32.5961,327.67,327.67,0
3.45,55.9166,14,0.3326,0.3014,0.0174,-50.9559,12.2986,208.4555,14.724,0.14,72.3612,44.492922,-79.18159057,-0.6694,4.3242,0.2656,0.5083,60.71,0.3514,0.194,-1.0142,3.3346,-2.2261,12.45,-32.6013,327.67,327.67,0
3.5,56.0694,14,0.3093,0.2415,0.0537,-50.3677,11.3208,208.4648,14.7,0.14,78.8261,44.49292658,-79.18159805,-1.0635,4.5234,0.1832,0.4611,61.0456,0.1885,0.2464,-1.039,1.7027,-1.1015,11.4418,-32.6055,327.67,327.67,2.2044
3.55,56.1179,14,0.2806,0.1737,0.0857,-49.8455,10.1819,208.4731,14.7,0.14,87.7189,44.49293118,-79.18160546,-12.8906,-6.77,-3.6781,-2.7372,60.7831,0.1785,0.1254,-1.0879,0.2557,-0.8243,10.5176,-32.6028,327.67,327.67,5.76
3.6,56.3854,14,0.2588,0.1189,0.088,-49.3883,9.3263,208.477,14.7,0.14,96.2226,44.49293587,-79.18161291,-8.375,-2.666,-0.0005,1.0499,60.7694,0.6388,0.1227,-0.9673,-0.3368,-2.11,9.718,-32.5902,327.67,327.67,36.5122
3.65,56.8551,14,0.2434,0.0763,0.0631,-48.9911,8.7322,208.477,14.7,0.14,103.6249,44.49294067,-79.18162039,-5.9434,-1.4629,0.1637,1.152,60.09,0.7009,0.1521,-0.868,0.2726,-3.4895,9.2375,-32.5906,327.67,327.67,72.7789
3.7,57.0028,14,0.2369,0.0458,0.0528,-48.6275,8.4729,208.4743,14.7,0.1426,107.0735,44.49294545,-79.18162778,-2.1211,-0.2752,0.0558,1.0403,60.0744,0.5469,0.1888,-0.88,1.5621,-4.093,8.9781,-32.5933,327.67,327.67,86.7233
3.75,56.8534,14,0.2387,0.0267,0.0561,-48.2949,8.5227,208.4693,14.7,0.1476,106.1694,44.49295023,-79.18163507,3.7686,4.2598,0.3052,1.0316,60.6919,-0.0977,0.256,-0.9641,3.2477,-3.3434,8.55,-32.601,327.67,327.67,97.6367
3.8,56.6712,14,0.2246,0.0501,0.0643,-47.8618,8.0093,208.4707,14.674,0.15,112.6129,44.49295504,-79.18164226,3.4385,3.5898,0.0992,0.8431,59.8413,-0.1483,0.3063,-1.0475,4.5633,-1.1484,7.9656,-32.6055,327.67,327.67,97.8033
3.85,56.4588,14,0.1957,0.1128,0.077,-47.3358,6.9761,208.4782,14.624,0.15,128.8077,44.4929599,-79.18164937,-5.582,-2.9199,-0.0272,0.9298,60.7962,0.7388,0.2634,-1.1748,5.3594,0.4808,7.0172,-32.6066,327.67,327.67,97.7833
3.9,56.9204,14,0.1717,0.1807,0.0696,-47.0531,6.108,208.4774,14.6,0.15,148.3158,44.49296489,-79.1816567,-10.4648,-5.1562,-0.0101,0.8714,60.9787,1.5555,0.3038,-1.043,5.7945,0.9334,5.7875,-32.6085,327.67,327.67,97.5056
3.95,58.0042,14,0.1523,0.2534,0.0436,-46.995,5.3925,208.469,14.6,0.15,171.1944,44.49297001,-79.18166424,-6.6445,-2.958,-0.421,0.4423,60.1712,0.7548,0.172,-0.912,5.3719,0.9182,5.082,-32.5986,327.67,327.67,97.4689
4,58.9513,14,0.1361,0.3108,0.0288,-46.8303,4.7897,208.4621,14.6,0.15,195.8867,44.49297522,-79.18167179,-9.6914,-7.832,-4.8578,-3.2255,60.4456,0.2578,0.1668,-0.9451,4.322,-0.1703,5.1387,-32.5906,327.67,327.67,97.58
4.05,59.7722,14,0.123,0.354,0.0243,-46.5672,4.291,208.4565,14.6,0.15,221.6996,44.4929805,-79.18167937,-6.2559,-1.5171,-2.5548,16.5048,61.0906,-0.0963,0.2329,-1.0488,3.2168,-1.7471,5.3812,-32.5957,327.67,327.67,97.6456
4.1,60.4252,14,0.1033,0.3902,0.0228,-46.3331,3.5708,208.4521,14.6,0.15,269.3224,44.49298584,-79.18168701,-4.1895,1.3979,-5.0421,-4.3,61.4919,-0.5355,0.3335,-1.1546,2.0426,-1.9109,5.1529,-32.5958,327.67,327.67,97.6989
4.15,60.9231,14,0.0773,0.4198,0.0243,-46.1258,2.6463,208.4487,14.6,0.15,366.4124,44.49299123,-79.1816947,-8.8223,-6.0845,-2.4042,-1.722,60.8694,-0.2052,0.0986,-1.1674,1.5108,-1.1755,4.2355,-32.5882,327.67,327.67,97.6433
4.2,61.5545,14,0.0508,0.446,0.0316,-46.0648,1.7223,208.4512,14.574,0.15,568.8063,44.49299667,-79.18170252,-6.0469,2.0781,-4.3791,-3.6661,60.7456,0.4761,0.0735,-1.1616,1.5282,-0.2403,3.0582,-32.5832,327.67,327.67,97.6
4.25,62.3092,14,0.0237,0.4691,0.0442,-46.139,0.799,208.4592,14.524,0.15,1241.2092,44.49300215,-79.18171047,-6.5,-1.4248,-3.683,-3.0772,60.1931,0.6704,0.1541,-1.1266,1.9729,0.1156,1.9769,-32.587,327.67,327.67,97.6
4.3,63.0431,14,0.0052,0.4534,0.0424,-46.1905,0.1745,208.4602,14.5,0.15,5751.2041,44.49300769,-79.18171853,-10.8555,-3.4824,-3.1453,-2.3526,60.2887,0.6755,0.0537,-1.029,2.51,-1.1712,1.3472,-32.5957,327.67,327.67,97.6
4.35,63.7581,14,-0.0055,0.4017,0.0271,-46.2212,-0.1742,208.455,14.5,0.15,5826.1934,44.49301329,-79.18172669,-16.7969,-13.2598,-1.0341,-0.7067,60.4044,0.3679,0.209,-0.9413,3.177,-2.8897,1.0967,-32.5996,327.67,327.67,97.6
4.4,64.3773,14,-0.0074,0.3554,0.0153,-46.2546,-0.2371,208.4512,14.5,0.15,4322.1265,44.49301894,-79.18173487,-2.9102,0.853,-0.1099,0.6323,60.3525,0.048,0.0617,-1.0336,3.3181,-2.4028,1.2195,-32.6018,327.67,327.67,97.6
4.45,64.9081,14,-0.0011,0.3142,0.0065,-46.2905,-0.0362,208.4488,14.5,0.15,10000,44.49302464,-79.18174308,-9.1875,-3.9248,-3.4306,-3.1923,60.0713,0.0139,-0.0059,-1.1451,2.9019,-1.3403,1.4233,-32.6012,327.67,327.67,97.6
4.5,65.5506,14,-0.0053,0.3118,-0.0039,-46.29,-0.1638,208.4432,14.5,0.15,6370.6143,44.4930304,-79.18175141,-7.0977,-0.572,-0.2214,-0.0081,61.1594,0.5853,0.0617,-1.1055,2.3157,-2.1514,1.5686,-32.5983,327.67,327.67,97.6
4.55,66.2961,14,-0.0192,0.3453,-0.016,-46.256,-0.5945,208.4346,14.5,0.15,1774.7687,44.49303621,-79.18175984,-6.9004,-0.9231,0.0784,0.3925,60.7094,-0.1229,0.0256,-1.0371,2.139,-2.8396,1.5086,-32.5934,327.67,327.67,97.6
4.6,66.8537,14,-0.0202,0.3537,-0.0265,-46.2103,-0.6251,208.4275,14.474,0.15,1702.1407,44.49304208,-79.1817683,-9.041,-6.5215,-5.0331,-4.4119,60.5456,-0.4421,0.135,-1.0752,2.2434,-2.0472,1.3154,-32.5884,327.67,327.67,97.6
4.65,67.2378,14,-0.0093,0.3389,-0.0357,-46.1539,-0.2863,208.4218,14.424,0.15,3737.9226,44.493048,-79.18177678,-5.5332,-3.04,0.0467,0.2889,60.3019,-0.1597,0.2054,-1.1182,2.9896,-1.7727,0.9357,-32.5954,327.67,327.67,97.6
4.7,67.7748,14,-0.0048,0.3228,-0.0426,-46.1781,-0.1452,208.4168,14.4,0.15,7429.0391,44.49305394,-79.18178536,-3.8545,-0.0862,0.5138,0.5395,60.6437,0.3078,0.2404,-1.0568,3.8448,-2.6363,0.537,-32.5976,327.67,327.67,97.6
4.75,68.4529,14,-0.0062,0.3053,-0.0474,-46.2766,-0.1866,208.4125,14.4,0.15,5837.9678,44.49305991,-79.18179403,-4.0547,-0.3671,0.3662,0.4892,60.9263,-0.0364,0.1424,-1.0061,4.3154,-2.8742,0.1908,-32.5973,327.67,327.67,97.5767
4.8,69.039,14,-0.0179,0.2993,-0.0536,-46.3586,-0.5295,208.409,14.4,0.15,2074.9634,44.49306593,-79.18180279,-6.1484,-0.2374,-0.9634,-0.8586,60.7537,-0.4969,0.0157,-0.9576,4.8604,-1.8979,-0.2023,-32.5968,327.67,327.67,97.5211
4.85,69.54,14,-0.0391,0.3038,-0.0613,-46.4252,-1.1508,208.4063,14.4,0.15,961.7399,44.49307201,-79.18181163,-4.3652,0.9392,-3.7366,-3.7999,60.76,-0.7448,-0.2114,-1.0619,5.0873,-1.0769,-0.5974,-32.5954,327.67,327.67,95.8811
4.9,69.9537,14,-0.0584,0.2961,-0.0596,-46.5392,-1.7087,208.4047,14.4,0.15,651.5834,44.49307808,-79.18182054,-9.0771,-3.0137,0.0477,0.4148,59.9469,-0.7453,-0.4559,-1.0671,5.0725,-0.8112,-1.1514,-32.5948,327.67,327.67,93.27
4.95,70.2869,14,-0.076,0.2772,-0.0491,-46.6969,-2.2081,208.4041,14.4,0.15,506.6159,44.49308414,-79.18182952,-13.3672,-6.6348,-5.18,-4.6137,60.0975,-0.5446,-0.4446,-0.8778,5.2287,-1.5983,-1.8007,-32.6028,327.67,327.67,71.07
5,70.8274,14,-0.1023,0.2459,-0.0734,-46.8597,-2.949,208.3893,14.374,0.15,382.2491,44.49309026,-79.18183859,-7.6074,-5.7637,-2.821,-2.6937,60.2894,-0.0305,-0.5282,-0.761,5.2256,-2.5566,-2.2462,-32.6069,327.67,327.67,45.04
5.05,71.5593,14,-0.1365,0.2033,-0.1296,-47.0273,-3.9129,208.3615,14.324,0.15,291.0666,44.49309644,-79.18184775,-5.2695,3.4121,0.669,0.6516,62.2531,0.2128,-0.6566,-0.8479,4.5422,-2.3579,-2.8599,-32.6057,327.67,327.67,42.04
5.1,71.8438,14,-0.1793,0.1635,-0.1523,-47.2639,-5.1114,208.3483,14.3,0.15,223.7028,44.49310252,-79.18185696,-4.5332,5.6289,0.8672,0.898,60.4169,0.2879,-0.5351,-0.9908,3.2609,-2.4263,-3.6373,-32.6037,327.67,327.67,39.48
5.15,71.7155,14,-0.2299,0.1264,-0.144,-47.5642,-6.5265,208.3485,14.3,0.15,174.8844,44.49310851,-79.18186621,-2.3857,6.1973,1.0685,1.1042,61.5194,-0.0873,-0.4549,-1.048,1.8179,-3.189,-4.6445,-32.6031,327.67,327.67,38.48
5.2,71.6121,14,-0.2896,0.0782,-0.1414,-47.9865,-8.1926,208.3444,14.3,0.15,139.1191,44.4931144,-79.18187553,-2.5479,6.5215,0.9964,1.0654,60.8569,-0.7148,-0.4393,-1.0548,0.8377,-2.8892,-6.5707,-32.6016,327.67,327.67,37.83
5.25,71.5317,14,-0.3575,0.0195,-0.1441,-48.5214,-10.0902,208.3363,14.3,0.15,112.8287,44.49312021,-79.18188493,-4.0918,8.3125,1.0477,0.784,61.0662,-1.0512,-0.4323,-1.0846,0.9003,-1.7172,-9.2223,-32.5967,327.67,327.67,37.6633
5.3,71.4506,14,-0.4366,-0.023,-0.1514,-49.2797,-12.3129,208.3271,14.3,0.15,92.3562,44.49312587,-79.18189445,-5.3555,6.668,1.1806,1.181,61.1419,-1.1009,-0.6266,-1.0542,1.5517,-1.6924,-11.7684,-32.5934,327.67,327.67,37.6
5.35,71.3689,14,-0.5258,-0.0507,-0.163,-50.2442,-14.8357,208.317,14.3,0.15,76.5635,44.49313139,-79.18190409,-6.0625,5.6367,1.3751,1.3449,61.335,-1.1094,-0.5604,-0.956,0.9672,-2.6492,-13.6387,-32.5923,327.67,327.67,37.6
5.4,71.2977,14,-0.6104,-0.0777,-0.1682,-51.2117,-17.2419,208.311,14.3,0.1474,65.8128,44.4931368,-79.18191389,-5.4238,7.6777,1.319,1.4409,60.185,-0.6995,-0.6569,-0.8705,-0.9191,-2.7771,-15.6215,-32.5902,327.67,327.67,38.0556
5.45,71.2362,14,-0.6905,-0.1042,-0.1677,-52.182,-19.5406,208.3087,14.3,0.1424,58.0208,44.49314212,-79.18192383,-7.8906,7.0449,1.1636,1.4646,59.7819,-0.2683,-0.5849,-0.9056,-1.9826,-2.0132,-18.2719,-32.5963,327.67,327.67,38.59
5.5,71.0242,14,-0.7552,-0.1138,-0.167,-53.2378,-21.4263,208.3042,14.274,0.14,52.7569,44.49314723,-79.18193384,-8.8008,8.3711,1.6754,1.4588,61.6881,0.1354,-0.5478,-1.0433,-1.5005,-2.0997,-20.7141,-32.6027,327.67,327.67,38.09
5.55,70.6734,14,-0.8056,-0.1079,-0.1661,-54.3727,-22.9309,208.2977,14.224,0.14,49.0517,44.49315214,-79.18194392,-7.1523,9.2461,1.6463,1.2106,60.7562,-0.1127,-0.8649,-0.9952,-0.1032,-2.7911,-22.575,-32.5909,327.67,327.67,37.6756
5.6,70.4187,14,-0.8334,-0.0907,-0.1837,-55.6334,-23.7925,208.2844,14.2,0.14,47.1052,44.49315685,-79.18195416,-8.1016,6.8125,1.5187,1.4508,61.3419,-0.404,-1.0372,-0.9498,0.5719,-3.339,-23.2273,-32.5817,327.67,327.67,37.5644
5.65,70.2527,14,-0.8402,-0.0632,-0.2182,-57.0101,-24.0604,208.2647,14.2,0.14,46.4709,44.49316138,-79.18196454,-10.5312,7.498,1.4823,1.4534,61.2956,-0.6599,-1.0077,-0.9873,-0.4226,-3.9054,-22.5406,-32.5852,327.67,327.67,37.6633
5.7,70.0745,14,-0.8474,-0.0672,-0.2514,-58.2566,-24.3239,208.2411,14.2,0.14,45.8508,44.49316574,-79.18197498,-10.7148,7.9941,1.5757,1.3276,60.9863,-0.4123,-0.8132,-0.9864,-2.6282,-4.5775,-21.0836,-32.586,327.67,327.67,38.0522
5.75,69.885,14,-0.855,-0.1003,-0.2834,-59.3827,-24.5834,208.2137,14.2,0.14,45.2442,44.49316996,-79.18198547,-12.5625,5.1602,1.3963,1.2178,60.39,0.6272,-0.6162,-0.8765,-4.8357,-5.7795,-18.7938,-32.5891,327.67,327.67,38.1656
5.8,69.7841,14,-0.8707,-0.1225,-0.3471,-60.4802,-25.1032,208.1725,14.2,0.14,44.2432,44.49317403,-79.18199607,-15.0625,1.8677,1.5596,1.2936,61.9869,0.8355,-0.5854,-0.6818,-5.9064,-7.3422,-16.9016,-32.5858,327.67,327.67,38.11
5.85,69.765,14,-0.894,-0.1344,-0.4402,-61.5514,-25.8635,208.1187,14.2,0.14,42.931,44.49317798,-79.18200675,-10.0625,7.7109,1.2889,1.2707,60.3931,0.1235,-0.865,-0.7129,-5.3984,-7.1219,-17.6586,-32.5779,327.67,327.67,38.92
5.9,69.3762,14,-0.9341,-0.1409,-0.4955,-62.9219,-27.1283,208.0812,14.2,0.14,40.7012,44.49318162,-79.18201753,-0.4426,13.2617,1.4129,1.2995,61.6244,0.123,-1.287,-0.9029,-4.5785,-4.6843,-20.4188,-32.5748,327.67,327.67,39.9122
5.95,68.6461,14,-0.9896,-0.1424,-0.516,-64.5687,-28.859,208.0588,14.2,0.14,37.8577,44.49318497,-79.18202838,-2.5586,11.9258,2.1831,2.147,61.0781,0.2538,-1.325,-1.0344,-3.3016,-2.4887,-23.1094,-32.5787,327.67,327.67,40.5233
6,68.2314,14,-1.0342,-0.1403,-0.5452,-66.2384,-30.2868,208.0318,14.174,0.14,35.8551,44.49318806,-79.18203938,-4.0918,12.6055,2.0581,1.6115,60.4206,-0.46,-1.1924,-1.0989,-2.4382,-1.5438,-25.1882,-32.5813,327.67,327.67,41.0978
6.05,68.1077,14,-1.0687,-0.1349,-0.5824,-67.9294,-31.4351,208.0004,14.124,0.14,34.4827,44.49319093,-79.1820505,-0.9932,15.5,1.6401,1.7145,61.5744,-0.584,-1.2772,-1.1041,-2.3715,-0.2713,-27.5438,-32.5876,327.67,327.67,41.5422
6.1,67.9151,14,-1.1064,-0.1336,-0.6021,-69.712,-32.6856,207.9777,14.1,0.14,33.0697,44.49319349,-79.18206173,-7.2402,15.6289,1.459,1.5876,60.7812,-0.4676,-1.2834,-1.0538,-2.1686,0.6299,-28.9875,-32.5981,327.67,327.67,41.8233
6.15,67.6589,14,-1.1471,-0.1362,-0.6056,-71.5793,-34.0304,207.9632,14.1,0.14,31.6431,44.49319576,-79.18207305,-11.5469,12.7695,1.8617,1.3728,60.8262,-0.3705,-1.1381,-0.9228,-2.7875,0.2681,-28.4875,-32.597,327.67,327.67,41.8789
6.2,67.4359,14,-1.1791,-0.1289,-0.6025,-73.351,-35.1336,207.9523,14.1,0.14,30.5484,44.4931978,-79.18208443,-4.3652,17.0625,1.8685,1.4256,61.5838,-0.0059,-1.2296,-0.966,-3.6436,1.3792,-28.3641,-32.5944,327.67,327.67,41.6244
6.25,67.2437,14,-1.2032,-0.1126,-0.5931,-75.0346,-36.0138,207.9447,14.1,0.14,29.7168,44.49319964,-79.18209585,-5.873,14.9453,0.9816,1.139,62.3406,-0.2263,-1.176,-1.0398,-3.6535,3.1762,-28.3219,-32.589,327.67,327.67,41.18
6.3,67.0165,14,-1.1976,-0.1003,-0.5948,-76.5838,-35.9894,207.9357,14.1,0.14,29.6365,44.49320125,-79.18210727,-13.5742,4.334,1.8532,1.4583,61.3631,-0.4866,-0.9701,-0.8642,-1.8511,1.4003,-26.7672,-32.5832,327.67,327.67,41.3733
6.35,66.7571,14,-1.1647,-0.0918,-0.6065,-78.0089,-35.1299,207.9254,14.1,0.14,30.2441,44.49320267,-79.1821187,-7.8672,13.8789,1.7851,1.1174,62.0456,-0.0691,-1.4664,-0.9231,-0.6267,-1.298,-25.7938,-32.5847,327.67,327.67,41.7056
6.4,66.4379,14,-1.1243,-0.084,-0.6069,-79.7765,-34.0274,207.919,14.1,0.14,31.0747,44.49320372,-79.18213017,-5.5488,15.332,1.4771,1.4168,60.3444,-0.3747,-1.617,-1.0609,-1.3864,-0.5241,-27.1771,-32.5864,327.67,327.67,41.9833
6.45,66.0636,14,-1.077,-0.0769,-0.5969,-81.8601,-32.7007,207.9162,14.1,0.14,32.1533,44.49320444,-79.18214168,-5.543,14.0938,0.7939,0.8282,60.9169,-0.7262,-1.4232,-1.1141,-1.964,2.2356,-29.2539,-32.59,327.67,327.67,42.2122
6.5,65.8306,14,-1.0602,-0.0801,-0.5771,-83.6175,-32.289,207.9157,14.1,0.14,32.4484,44.49320501,-79.18215319,-6.3926,13.3516,1.4766,1.4575,62.0288,-0.4328,-1.2061,-1.1159,-1.4817,3.2433,-29.1648,-32.5978,327.67,327.67,42.2678
6.55,65.728,14,-1.0714,-0.093,-0.5482,-85.0738,-32.7221,207.9172,14.1,0.14,31.9691,44.49320543,-79.18216469,-7.5625,10.8594,1.4896,1.0951,61.5375,-0.3795,-1.165,-1.0508,-1.4083,1.7391,-26.7547,-32.5888,327.67,327.67,42.2533
6.6,65.6758,14,-1.0658,-0.0817,-0.5372,-86.5266,-32.6509,207.9099,14.074,0.14,32.0133,44.49320565,-79.18217619,-11.5742,5.2305,0.9638,0.8154,62.0387,-0.3511,-0.9155,-0.8644,-1.8918,-0.5753,-24.1539,-32.5753,327.67,327.67,42.1422
6.65,65.6702,14,-1.0447,-0.0482,-0.5426,-87.976,-32.1142,207.8944,14.024,0.14,32.5455,44.49320566,-79.18218768,-11.6875,7.1035,0.8056,0.6576,60.7231,0.5016,-0.9693,-0.8919,-3.0038,-1.9949,-22.9672,-32.5749,327.67,327.67,41.9278
6.7,65.5542,14,-1.0319,-0.0276,-0.5395,-89.5634,-31.802,207.8892,14,0.14,32.807,44.49320538,-79.18219914,-5.8516,11.9766,0.879,0.849,61.3187,0.4061,-1.1719,-1.0223,-4.0041,-2.0653,-23.0258,-32.5773,327.67,327.67,41.65
6.75,65.3365,14,-1.0268,-0.0188,-0.5287,-91.2784,-31.6969,207.8933,14,0.14,32.8064,44.49320484,-79.18221058,-8.0547,9.1719,1.0827,1.1104,61.895,-0.3018,-1.0507,-0.991,-3.8093,-2.1683,-22.8367,-32.5844,327.67,327.67,41.8733
6.8,65.2505,14,-1.0249,-0.0223,-0.5072,-93.0055,-31.6819,207.9,14,0.14,32.7788,44.49320405,-79.182222,-7.9414,12.8281,0.905,1.0166,61.6681,-0.209,-0.9939,-0.9222,-3.0638,-2.6063,-22.6273,-32.5869,327.67,327.67,42.2022
6.85,65.286,14,-1.0259,-0.0369,-0.4758,-94.7438,-31.7498,207.9089,14,0.14,32.7264,44.49320302,-79.18223341,-9.3516,7.498,1.0454,0.7372,60.905,-0.4819,-0.9271,-0.9693,-3.3905,-2.5837,-22.6859,-32.5827,327.67,327.67,42.3133
6.9,65.1691,14,-1.036,-0.0616,-0.4669,-96.1923,-32.1141,207.9083,14,0.14,32.2973,44.49320188,-79.18224469,-11.3906,5.1445,0.8312,0.6904,61.375,0.1382,-0.6452,-0.7821,-4.5246,-2.9812,-22.5422,-32.5819,327.67,327.67,42.4367
6.95,64.9114,14,-1.0545,-0.0954,-0.4788,-97.3734,-32.7518,207.8989,14,0.14,31.5432,44.49320064,-79.18225585,-10.7578,12.4922,1.1775,1.0382,61.3375,-0.1269,-0.7874,-0.813,-5.3816,-2.7663,-23.8695,-32.5842,327.67,327.67,42.6033
7,64.5433,14,-1.0885,-0.1136,-0.4523,-99.0939,-33.9119,207.9066,14,0.1426,30.2914,44.49319902,-79.18226687,-3.7471,19.2812,1.0543,0.8844,60.7706,-0.268,-1.4133,-1.1337,-6.1873,-0.7507,-27.0977,-32.5855,327.67,327.67,43.4
7.05,64.0735,14,-1.1367,-0.1174,-0.3904,-101.3124,-35.5541,207.9299,14,0.1476,28.6819,44.49319705,-79.18227778,-1.5874,17.2344,1.1063,1.0941,61.1669,0.2613,-1.543,-1.1559,-6.4996,1.5563,-29.9242,-32.5894,327.67,327.67,45.0667
7.1,63.6998,14,-1.1502,-0.1229,-0.3351,-103.4027,-36.1176,207.9516,14,0.1474,28.0698,44.49319483,-79.18228853,-6.6621,16.9297,1.2676,1.2263,62.2356,-0.1673,-1.4533,-1.1914,-6.4879,2.748,-31.3422,-32.59,327.67,327.67,46.3889
7.15,63.415,14,-1.1316,-0.1301,-0.2859,-105.3747,-35.6853,207.972,14,0.1424,28.2828,44.49319238,-79.18229913,-6.0312,14.6797,0.9144,1.0066,61.0294,-0.5016,-1.1793,-1.2014,-6.9822,3.278,-31.5344,-32.5786,327.67,327.67,47.5
7.2,63.184,14,-1.1222,-0.1307,-0.2438,-107.0941,-35.5487,207.9867,13.974,0.1374,28.2881,44.49318974,-79.18230959,-10.6445,7.5527,0.4203,0.2704,60.9813,0.1379,-0.9121,-0.9369,-7.4373,2.495,-29.8844,-32.5788,327.67,327.67,47.9278
7.25,63.0026,14,-1.1212,-0.1252,-0.2083,-108.5803,-35.6848,207.9964,13.924,0.1324,28.0992,44.49318695,-79.18231993,-15.8984,6.1484,0.4796,0.291,60.74,0.1508,-0.7015,-0.8487,-7.4941,0.3087,-27.4797,-32.5908,327.67,327.67,48.2289
7.3,62.9286,14,-1.1199,-0.1103,-0.1803,-110.0543,-35.8039,208.0071,13.9,0.13,27.9729,44.49318398,-79.18233019,-8.1953,9.875,0.1924,0.2276,61.5288,-0.3797,-0.9374,-1.0119,-7.0146,-1.0168,-26.9953,-32.5911,327.67,327.67,49.6733
7.35,62.9537,14,-1.1182,-0.0867,-0.1593,-111.5171,-35.9072,208.0187,13.9,0.13,27.9036,44.49318085,-79.1823404,-5.1543,11.2812,0.2821,0.1617,61,-0.1442,-1.3369,-1.1047,-4.8715,-0.8051,-28.7367,-32.5895,327.67,327.67,51.0933
7.4,62.6577,14,-1.1004,-0.0569,-0.1262,-113.3797,-35.4638,208.0346,13.9,0.1326,28.1196,44.49317742,-79.18235027,-8.8672,12.9609,0.4481,0.4877,61.09,-0.1269,-1.5414,-1.1862,-2.3994,-0.9098,-30.3227,-32.5851,327.67,327.67,52.4267
7.45,62.0652,14,-1.0677,-0.0215,-0.082,-115.6115,-34.5158,208.0542,13.9,0.1376,28.6188,44.49317371,-79.18235982,-9,8.4414,0.3756,0.2115,62.4794,0.2465,-1.4658,-1.0363,-1.2654,-1.6637,-30.3398,-32.5864,327.67,327.67,53.48
7.5,61.9736,14,-1.0294,-0.0049,-0.0712,-117.4956,-33.345,208.0549,13.9,0.14,29.5799,44.49316981,-79.18236929,-10.8672,2.6777,0.291,0.2389,62.1169,0.2685,-1.0747,-0.7903,-0.6062,-2.3686,-29.5602,-32.5911,327.67,327.67,54.1467
7.55,62.3444,14,-0.9859,-0.0057,-0.0911,-119.0587,-31.9685,208.0381,13.9,0.14,31.0381,44.49316573,-79.18237866,-12.5078,3.5732,0.4265,0.3134,61.4756,-0.158,-0.9881,-0.8013,-0.4316,-3.1551,-28.5547,-32.5835,327.67,327.67,55.95
7.6,62.5312,14,-0.9794,0.0096,-0.1068,-120.4708,-31.7869,208.0281,13.9,0.14,31.309,44.49316153,-79.18238794,-11.4609,2.1162,0.1592,0.2303,61.1012,-0.3462,-0.9375,-0.8259,-0.259,-4.3945,-27.25,-32.5775,327.67,327.67,58.45
7.65,62.5482,14,-1.0068,0.04,-0.1186,-121.7436,-32.7082,208.0244,13.9,0.14,30.4354,44.49315721,-79.18239712,-10.3438,2.251,0.3439,0.2816,61.2225,0.1629,-0.9297,-0.8081,0.2598,-5.1758,-26.2969,-32.5856,327.67,327.67,68.5578
7.7,62.5378,14,-1.0077,0.0703,-0.0852,-123.3141,-32.7401,208.0384,13.9,0.14,30.4007,44.49315264,-79.18240609,-7.9395,6.8672,0.3346,0.3217,61.2962,0.0812,-1.1209,-0.9914,1.0908,-4,-26.0469,-32.5897,327.67,327.67,80.28
7.75,62.5019,14,-0.9841,0.1007,-0.01,-125.1595,-31.9509,208.0688,13.9,0.14,31.1337,44.49314783,-79.18241485,-9.4219,7.7637,0.2787,0.1201,61.5481,-0.2329,-1.0044,-1.1406,1.3633,-2.5488,-24.5625,-32.5885,327.67,327.67,89.28
7.8,62.6504,14,-0.9431,0.1313,0.0057,-126.7484,-30.5702,208.0747,13.874,0.1426,32.6171,44.49314287,-79.18242349,-13.6016,2.3262,0.3194,0.5018,61.805,0.1956,-1.0822,-0.9794,0.2469,-2.9414,-21.5156,-32.5854,327.67,327.67,96.4344
7.85,62.9691,14,-0.8859,0.1619,-0.0335,-128.1005,-28.6435,208.0581,13.824,0.1476,34.9882,44.49313778,-79.18243203,-11.2695,1.5552,0.3251,0.3268,61.6969,0.3044,-1.0895,-0.8845,-0.6497,-3.7295,-19.2344,-32.5815,327.67,327.67,97.0456
7.9,63.3607,14,-0.8416,0.1963,-0.0601,-129.4078,-27.117,208.045,13.8,0.15,37.1876,44.4931325,-79.18244044,-12.0391,3.1094,0.2191,0.2631,61.7556,0.643,-0.9558,-0.8707,0.2896,-3.5332,-18.5156,-32.579,327.67,327.67,97.3767
7.95,63.8197,14,-0.8093,0.234,-0.0752,-130.6738,-25.9599,208.0351,13.8,0.15,39.1266,44.49312704,-79.18244875,-14.0117,4.3438,0.2191,0.3744,60.3769,0.8246,-0.9908,-0.9187,2.0474,-3.4941,-18.1562,-32.5788,327.67,327.67,97.3211
8,64.2848,14,-0.809,0.2601,-0.0881,-131.9762,-25.7999,208.0303,13.8,0.15,39.6562,44.49312136,-79.18245696,-11.8828,1.6631,0.4753,0.5611,60.485,0.3252,-1.0516,-0.9662,3.4668,-3.8398,-17.5781,-32.5785,327.67,327.67,97.3
8.05,64.7556,14,-0.8382,0.2755,-0.0989,-133.3122,-26.5603,208.0302,13.8,0.15,38.803,44.4931155,-79.1824651,-13.6445,1.5601,0.37,0.436,61.6213,0.3213,-0.82,-0.972,2.6553,-3.9814,-16.2734,-32.5831,327.67,327.67,97.3
8.1,65.3565,14,-0.8303,0.3034,-0.1208,-134.4762,-26.1403,208.0162,13.8,0.15,39.7922,44.49310949,-79.18247317,-14.8555,1.9487,0.3522,0.267,60.1987,0.7546,-0.5904,-0.9015,0.0517,-4.0977,-14.3984,-32.5957,327.67,327.67,97.3456
8.15,66.0775,14,-0.788,0.3427,-0.1527,-135.4813,-24.6307,207.9893,13.8,0.15,42.6969,44.49310336,-79.18248118,-12.6016,5.5918,0.2798,0.5542,61.8756,0.8734,-0.7713,-0.8998,-2.6582,-3.7402,-13.168,-32.6023,327.67,327.67,97.4011
8.2,66.6572,14,-0.7559,0.3553,-0.1695,-136.7066,-23.4294,207.9759,13.8,0.1526,45.28,44.49309701,-79.18248903,-8.8828,10.0664,0.2462,0.332,62.3262,0.185,-0.9673,-1.0471,-4.1367,-2.459,-13.0781,-32.6046,327.67,327.67,97.4567
8.25,67.1064,14,-0.7331,0.343,-0.1722,-138.1352,-22.5125,207.9747,13.8,0.1576,47.4416,44.49309046,-79.18249671,-6.8027,10.5742,0.3742,0.3425,61.6338,-0.2308,-0.7521,-1.2914,-3.6484,-1.1038,-13.2734,-32.5971,327.67,327.67,97.5
8.3,67.5691,14,-0.7321,0.3315,-0.1641,-139.3782,-22.2734,207.9772,13.8,0.16,48.2815,44.49308378,-79.18250427,-8.2109,7.9238,0.5384,0.5049,62.6769,0.0216,-0.6264,-1.3614,-2.0469,-0.2097,-13.0078,-32.5764,327.67,327.67,97.5
8.35,68.0443,14,-0.7512,0.3206,-0.1461,-140.4501,-22.66,207.9829,13.8,0.16,47.7917,44.49307698,-79.18251169,-9.1719,7.2812,0.3604,0.4057,61.5612,0.1661,-0.5253,-1.2211,-1.5068,0.2162,-12.8359,-32.5671,327.67,327.67,97.5467
8.4,68.5586,14,-0.7505,0.3097,-0.1453,-141.4617,-22.4637,207.9787,13.774,0.1626,48.5736,44.49307004,-79.18251903,-12.3164,1.938,0.2572,0.1938,61.9769,0.417,-0.5596,-0.9958,-2.1895,-0.3611,-13.0312,-32.565,327.67,327.67,97.6578
8.45,69.1091,14,-0.7317,0.2988,-0.1604,-142.4177,-21.7295,207.9654,13.724,0.1676,50.618,44.49306297,-79.18252628,-9.5234,4.5449,0.3803,0.4814,61.1719,0.3051,-0.7195,-0.958,-2.5195,-1.6577,-13.6641,-32.571,327.67,327.67,97.6656
8.5,69.6317,14,-0.7218,0.2872,-0.1629,-143.3965,-21.271,207.9593,13.7,0.1674,52.1001,44.49305576,-79.1825334,-8.8008,4.6484,0.5825,0.4945,61.8669,-0.0275,-0.9987,-0.9977,-1.4688,-2.7207,-14.7891,-32.5762,327.67,327.67,97.61
8.55,70.1286,14,-0.72,0.275,-0.1537,-144.3961,-21.067,207.9599,13.7,0.1624,52.98,44.49304844,-79.1825404,-7.3516,5.0801,0.3494,0.3528,61.2875,-0.3014,-1.0236,-1.0914,0.0757,-3.1445,-16.1406,-32.577,327.67,327.67,97.6
8.6,70.5486,15,-0.7258,0.2634,-0.1434,-145.4857,-21.0911,207.961,13.7,0.16,53.2364,44.49304095,-79.18254721,-6.4512,6.6602,0.1797,0.4376,61.9313,-0.4542,-1.084,-1.0925,1.0186,-2.668,-17.5625,-32.5776,327.67,327.67,97.6
8.65,70.8976,15,-0.7386,0.2524,-0.1322,-146.6585,-21.3258,207.9628,13.7,0.16,52.911,44.4930333,-79.18255382,-9.5,5.5117,0.3989,0.2884,62.6813,0.3322,-0.9234,-1.002,1.168,-2.0752,-18.5,-32.5777,327.67,327.67,97.6
8.7,71.3123,15,-0.7455,0.2472,-0.1238,-147.7654,-21.3939,207.9626,13.7,0.16,53.051,44.49302554,-79.18256029,-12.3984,4.8359,0.4916,0.4938,60.7225,0.9706,-0.8248,-0.9327,0.707,-1.998,-18.7656,-32.5805,327.67,327.67,97.6
8.75,71.7876,15,-0.7469,0.2473,-0.1179,-148.8116,-21.3084,207.9607,13.7,0.16,53.6191,44.49301767,-79.18256663,-10.8477,6.1973,0.4422,0.2359,62.1919,0.8475,-0.8476,-0.9333,-0.0198,-1.793,-18.5625,-32.59,327.67,327.67,97.6
8.8,72.1747,15,-0.762,0.2464,-0.1181,-149.9292,-21.6117,207.9561,13.7,0.16,53.1516,44.49300967,-79.18257271,-8.0332,9.2227,0.2363,0.343,61.285,0.1173,-0.8996,-1.0175,-0.4368,-1.177,-17.8687,-32.5967,327.67,327.67,97.6
8.85,72.4802,15,-0.7899,0.2448,-0.124,-151.1128,-22.274,207.949,13.7,0.16,51.7895,44.49300153,-79.18257858,-6.8672,7.7637,0.2087,0.2992,61.4244,0.1123,-0.9015,-1.1289,-0.4511,-0.883,-16.5953,-32.5938,327.67,327.67,97.6
8.9,72.8389,15,-0.7899,0.2423,-0.1128,-152.2184,-22.1556,207.9509,13.7,0.16,52.3239,44.49299328,-79.18258431,-7.125,6.2617,0.5912,0.4015,62.5975,0.052,-1.0044,-1.1229,-0.5697,-0.8777,-15.1562,-32.5869,327.67,327.67,97.4278
8.95,73.2468,15,-0.7643,0.239,-0.0861,-153.252,-21.3166,207.9612,13.7,0.16,54.6878,44.49298493,-79.18258992,-9.1758,6.252,0.6021,0.4073,61.1912,0.1128,-1.093,-1.0514,-0.9328,-0.7344,-14.1355,-32.5806,327.67,327.67,97.15
9,73.657,15,-0.7313,0.2281,-0.0654,-154.2232,-20.2875,207.9681,13.7,0.16,57.7838,44.49297644,-79.18259535,-10.207,7.1035,0.1993,0.2932,61.2594,-0.1305,-0.952,-0.9981,-1.5729,-1.0872,-13.3344,-32.566,327.67,327.67,58.7422
9.05,74.0692,15,-0.6916,0.2103,-0.0504,-155.1369,-19.0827,207.9718,13.7,0.16,61.7757,44.49296783,-79.18260062,-11.6172,3.6602,0.2248,0.2407,61.4156,0.312,-0.5941,-0.9306,-2.0776,-2.5903,-12.4645,-32.5724,327.67,327.67,12.7567
9.1,74.4228,15,-0.655,0.1778,-0.0451,-155.9501,-17.9808,207.9701,13.674,0.1626,65.8746,44.49295917,-79.18260572,-10.6484,2.2461,0.3135,0.3641,61.5156,0.2845,-0.5304,-0.8883,-1.7935,-4.1783,-11.9191,-32.5874,327.67,327.67,5.59
9.15,74.7222,15,-0.6211,0.1318,-0.0488,-156.6705,-16.9737,207.9632,13.624,0.1676,70.0638,44.49295046,-79.18261066,-9.1445,3.4326,0.3842,0.3009,60.8619,-0.3914,-0.4078,-0.8739,-0.7418,-4.7488,-11.9293,-32.586,327.67,327.67,0
9.2,74.7921,15,-0.5946,0.0752,-0.0553,-157.4363,-16.1916,207.958,13.6,0.17,73.5165,44.49294174,-79.18261544,-6.0449,6.6309,0.4526,0.7713,62.14,-0.4124,-0.5503,-0.9291,0.14,-4.5625,-12.125,-32.5813,327.67,327.67,0
9.25,74.6503,15,-0.5749,0.0089,-0.0643,-158.2439,-15.6173,207.9545,13.6,0.17,76.0754,44.492933,-79.18262008,-2.4346,10.5,0.4094,0.5527,62.3731,0.1099,-0.7334,-0.9133,0.8457,-3.9072,-12.1172,-32.5765,327.67,327.67,10.78
9.3,74.3972,15,-0.5484,-0.0469,-0.0541,-159.023,-14.8832,207.9548,13.6,0.17,79.5576,44.4929243,-79.18262452,-2.7041,9.3867,0.3353,0.4072,62.28,0.5,-0.5847,-0.91,1.6924,-3.1484,-11.9141,-32.5743,327.67,327.67,36.4467
9.35,74.0416,15,-0.5155,-0.093,-0.0261,-159.776,-14.0014,207.9588,13.6,0.17,84.1636,44.49291562,-79.18262877,-1.6685,8.457,0.3252,0.3067,61.2887,0.4537,-0.5674,-0.8979,2.2422,-2.2861,-11.3906,-32.5726,327.67,327.67,54.4322
9.4,73.7063,15,-0.4856,-0.1204,-0.0211,-160.4803,-13.2129,207.9591,13.6,0.17,88.7824,44.49290694,-79.18263285,-5.8418,5.998,0.3273,0.4517,61.4381,0.2828,-0.557,-0.8843,2.7012,-1.3145,-10.7109,-32.5744,327.67,327.67,67.71
9.45,73.39,15,-0.4585,-0.1306,-0.0373,-161.1398,-12.5105,207.9559,13.6,0.17,93.3648,44.49289827,-79.18263677,-1.5063,12.125,0.4029,0.2453,61.8719,-0.0463,-0.3296,-1.1461,2.9404,0.2178,-9.3828,-32.5809,327.67,327.67,80.7144
9.5,73.1673,15,-0.4227,-0.1156,-0.0323,-161.7002,-11.5683,207.9574,13.6,0.17,100.6626,44.49288955,-79.18264061,-2.6123,9.8047,0.276,0.1837,60.8494,0.1708,-0.3709,-1.1962,2.9531,1.4482,-7.1953,-32.585,327.67,327.67,93.4233
9.55,73.031,15,-0.3789,-0.0773,-0.0077,-162.1694,-10.4048,207.9632,13.6,0.17,111.7105,44.49288079,-79.18264437,-7.9512,5.0312,0.1804,0.3703,60.96,0.289,-0.1926,-1.073,2.3213,0.7205,-4.4062,-32.5881,327.67,327.67,94.59
9.6,73.1944,15,-0.3379,-0.0236,0.0056,-162.5148,-9.3017,207.9654,13.6,0.17,125.2382,44.49287197,-79.18264814,-11.2031,-1.6572,0.2188,0.1839,61.335,-0.1447,0.0925,-0.8254,1.5762,-1.0684,-2.1172,-32.5922,327.67,327.67,95.4878
9.65,73.6342,15,-0.2994,0.0442,0.0084,-162.746,-8.2543,207.9642,13.6,0.17,141.9779,44.49286309,-79.18265191,-12.0742,-3.2598,0.3501,0.2205,61.7006,-0.0841,0.0584,-0.7417,1.1572,-2.459,-1.1919,-32.5888,327.67,327.67,95.4322
9.7,74.0545,15,-0.2691,0.1115,-0.0041,-163.0106,-7.4178,207.9564,13.6,0.17,158.8894,44.49285413,-79.18265562,-12.1133,-3.0986,0.3213,0.2465,61.8481,0.0928,-0.0375,-0.7826,0.6123,-3.7539,-1.1406,-32.5864,327.67,327.67,95.4
9.75,74.4565,15,-0.2462,0.1782,-0.0309,-163.306,-6.7761,207.9426,13.6,0.17,174.8818,44.49284511,-79.18265927,-7.7363,1.1606,0.2285,0.387,60.945,0.3421,-0.1918,-0.9,0.2488,-4.4004,-1.4346,-32.5836,327.67,327.67,95.4
9.8,74.7648,15,-0.2442,0.2245,-0.0452,-163.7168,-6.6931,207.9319,13.6,0.17,177.7841,44.49283606,-79.18266279,-5.2852,5.4141,0.1589,0.0779,61.0494,0.0173,-0.2481,-1.0577,0.9102,-3.957,-2.2656,-32.5795,327.67,327.67,95.5378
9.85,74.9866,15,-0.2612,0.252,-0.0481,-164.2341,-7.1258,207.9243,13.6,0.17,167.483,44.49282698,-79.18266621,-5.9219,1.9595,0.2484,0.2699,60.8512,0.1607,-0.2286,-1.0959,2.1626,-3.4004,-3.7715,-32.5856,327.67,327.67,95.76
9.9,75.3855,15,-0.2857,0.2637,-0.0615,-164.7221,-7.7466,207.9158,13.6,0.1726,154.8805,44.49281778,-79.18266954,-4.2207,5.1602,0.3624,0.2629,60.995,0.4979,-0.6137,-1.0115,3.3301,-2.6816,-5.3555,-32.5902,327.67,327.67,95.8
9.95,75.9479,15,-0.3169,0.2608,-0.0845,-165.1832,-8.541,207.9066,13.6,0.1776,141.5228,44.49280846,-79.1826728,-7.0078,1.1821,0.397,0.3106,61.3744,0.0986,-0.6084,-0.9795,3.9131,-1.5122,-6.5957,-32.5904,327.67,327.67,95.8011
10,76.3976,15,-0.3472,0.2496,-0.1066,-165.6702,-9.3009,207.8912,13.574,0.1774,130.7302,44.4927991,-79.18267596,-5.5332,4.6094,0.4355,0.3398,60.8488,0.185,-0.4532,-1.0465,3.6855,-0.1346,-7.6328,-32.5917,327.67,327.67,95.8567
10.05,76.7431,15,-0.3766,0.2308,-0.1279,-166.1812,-10.0288,207.87,13.524,0.1724,121.7893,44.4927897,-79.18267903,-6.4414,4.707,0.4329,0.2939,60.4956,0.5849,-0.4684,-1.031,3.4697,0.615,-8.3203,-32.5924,327.67,327.67,95.9122
10.1,77.071,15,-0.3919,0.212,-0.1422,-166.6639,-10.3832,207.859,13.5,0.17,118.1355,44.49278024,-79.18268203,-6.0039,5.6738,0.3331,0.2384,61.3088,0.224,-0.4972,-1.0186,3.418,0.1954,-8.5391,-32.593,327.67,327.67,95.9678
10.15,77.3827,15,-0.3943,0.1933,-0.1499,-167.1205,-10.3927,207.8573,13.5,0.17,118.5048,44.49277073,-79.18268495,-8.2812,6.7383,0.3101,0.2149,59.83,-0.1257,-0.3852,-0.9773,2.3857,-0.4294,-8.4688,-32.5915,327.67,327.67,95.1133
10.2,77.71,15,-0.3794,0.1836,-0.1539,-167.6011,-9.9576,207.8516,13.5,0.17,124.2063,44.49276116,-79.18268775,-8.1875,7.1973,0.2288,0.0211,60.6425,-0.2792,-0.3884,-1.0281,0.9541,-0.5562,-8.3672,-32.585,327.67,327.67,93.0022
10.25,78.0516,15,-0.3486,0.1822,-0.1544,-168.1038,-9.112,207.8421,13.5,0.17,136.3286,44.49275153,-79.18269043,-5.2578,6.8125,0.2011,0.2167,61.3875,-0.1651,-0.4575,-1.1268,-0.2108,-0.5085,-8.0898,-32.5863,327.67,327.67,88.7556
10.3,78.331,15,-0.322,0.1721,-0.1479,-168.5431,-8.382,207.8388,13.5,0.17,148.7329,44.49274188,-79.18269306,-0.718,15.1055,0.3202,0.2771,61.0938,0.0783,-0.5681,-1.1362,-0.4756,0.1312,-7.7188,-32.5934,327.67,327.67,83.2
10.35,78.5528,15,-0.2993,0.1539,-0.1351,-168.924,-7.7585,207.8411,13.5,0.17,161.1393,44.49273221,-79.18269564,-2.9102,9.75,0.3902,0.4099,61.0975,0.1441,-0.3461,-1.1631,-0.6931,0.7305,-6.7949,-32.5937,327.67,327.67,81.4711
10.4,78.7539,15,-0.2933,0.1313,-0.1174,-169.267,-7.575,207.8482,13.5,0.17,165.4653,44.49272249,-79.18269814,1.1064,6.8184,0.4771,0.4379,61.1525,0.1222,-0.478,-1.1204,-0.2341,1.0479,-5.6484,-32.5897,327.67,327.67,80.58
10.45,78.9358,15,-0.3029,0.1047,-0.0952,-169.5748,-7.7976,207.8596,13.5,0.17,161.1133,44.49271274,-79.18270056,-0.6802,8.2656,0.3324,0.2838,61.1425,0.0131,-0.7134,-1.1072,0.3572,1.2349,-4.4941,-32.5893,327.67,327.67,79.58
10.5,79.0723,15,-0.3188,0.0881,-0.0639,-169.9129,-8.1843,207.8716,13.5,0.17,153.7661,44.49270299,-79.18270292,-2.9482,11.375,0.272,0.2171,61.8969,-0.0206,-0.6017,-1.0695,0.959,1.3008,-3.8867,-32.5863,327.67,327.67,77.9811
10.55,79.1667,15,-0.3404,0.0808,-0.0241,-170.2789,-8.7226,207.8843,13.5,0.17,144.4506,44.49269322,-79.18270521,-3.7676,8.6094,0.2047,0.1695,61.6562,0.0985,-0.4723,-0.9979,0.8164,0.7444,-4.3223,-32.5811,327.67,327.67,74.2589
10.6,79.288,15,-0.3705,0.0652,0.0052,-170.7818,-9.4746,207.8991,13.5,0.17,133.1884,44.49268341,-79.18270732,-6.8066,6.1055,0.2758,0.416,60.2363,0.1528,-0.4226,-0.896,0.1318,-0.4709,-6.1289,-32.5776,327.67,327.67,66.4767
10.65,79.4339,15,-0.4083,0.042,0.025,-171.4111,-10.424,207.9159,13.5,0.17,121.2801,44.49267355,-79.18270926,-4.8418,8.3086,0.3367,0.3941,61.0506,-0.1079,-0.5393,-0.8343,-0.5664,-1.0972,-8.8516,-32.5863,327.67,327.67,53.0878
10.7,79.4131,15,-0.4466,0.0184,0.0451,-172.1486,-11.3904,207.9277,13.5,0.17,110.9622,44.4926637,-79.18271095,-4.2969,8.6758,0.5323,0.4293,61.8306,-0.3427,-0.5533,-0.9053,-1.0986,-1.5234,-10.9219,-32.5988,327.67,327.67,37.5633
10.75,79.2385,15,-0.4853,-0.0056,0.0655,-172.9859,-12.3722,207.9352,13.5,0.17,101.9315,44.49265385,-79.18271242,-7.9668,7.7969,0.3446,0.5781,61.6213,-0.4255,-0.6975,-0.9638,-1.4375,-2.7344,-11.8516,-32.5858,327.67,327.67,20.73
10.8,79.1471,15,-0.5228,-0.0325,0.0838,-173.7014,-13.3274,207.9439,13.5,0.17,94.5169,44.492644,-79.18271377,-8.8984,7.752,0.1406,0.2891,61.5531,-0.3213,-0.8066,-0.9583,-1.6275,-3.9209,-12.4353,-32.5785,327.67,327.67,16.1056
10.85,79.1325,15,-0.559,-0.0621,0.1002,-174.3047,-14.2579,207.954,13.5,0.17,88.3322,44.49263413,-79.18271499,-8.9844,2.4238,0.0245,0.097,61.4062,-0.0128,-0.7011,-0.7767,-1.3594,-4.6193,-12.5977,-32.5803,327.67,327.67,14.24
10.9,78.962,15,-0.5769,-0.0967,0.0929,-174.9185,-14.7323,207.9527,13.474,0.17,85.3039,44.49262434,-79.18271605,-5.457,4.4746,0.0084,0.1914,61.4606,0.1638,-0.5092,-0.7229,-0.6016,-4.6193,-12.1004,-32.5832,327.67,327.67,16.24
10.95,78.6477,15,-0.5779,-0.1359,0.0638,-175.542,-14.7855,207.941,13.424,0.17,84.6582,44.4926146,-79.18271695,-0.7988,12.8711,0.0326,0.3199,62.2619,-0.2403,-0.5765,-0.8777,-0.1111,-3.7785,-11.0344,-32.5843,327.67,327.67,18.3133
11,78.224,15,-0.5673,-0.1787,0.0687,-176.2855,-14.554,207.9444,13.4,0.17,85.5414,44.49260493,-79.18271764,-1.8789,13.8516,0.6348,1.0048,61.4837,-0.3735,-0.641,-1.0393,-0.2786,-2.8243,-9.5469,-32.585,327.67,327.67,20.6467
11.05,77.6992,15,-0.5461,-0.2248,0.105,-177.1397,-14.0597,207.9618,13.4,0.17,87.955,44.49259531,-79.18271812,-0.7991,14.2539,4.4458,3.5811,61.7525,-0.4147,-0.7049,-1.0945,-0.549,-1.9448,-8.3332,-32.5848,327.67,327.67,21.8367
11.1,77.1337,15,-0.5327,-0.2699,0.1348,-177.8834,-13.7813,207.9749,13.4,0.17,89.0785,44.4925858,-79.18271848,-1.0742,13.1523,8.3045,7.6155,62.2287,-0.3418,-0.6197,-1.0774,-0.4203,-1.1533,-7.7961,-32.5825,327.67,327.67,21.4478
11.15,76.5305,15,-0.5266,-0.3141,0.1586,-178.5252,-13.7024,207.9838,13.4,0.17,88.8913,44.49257639,-79.18271872,-2.2783,10.8789,11.142,10.6859,61.4025,-0.2994,-0.5887,-0.937,-0.0421,-1.2564,-7.6756,-32.5767,327.67,327.67,21.4033
11.2,75.9408,15,-0.5374,-0.3492,0.1649,-85.5578,-14.0826,207.9872,13.4,0.17,85.8247,44.49256702,-79.18271878,-1.1768,11.4688,11.5275,11.2312,61.2912,-0.1431,-0.5983,-0.8188,0.0186,-2.1426,-8.2266,-32.572,327.67,327.67,21.57
11.25,75.3634,15,-0.5636,-0.3758,0.1551,93.8181,-14.8867,207.9855,13.4,0.17,80.5714,44.4925577,-79.18271866,-3.1846,10.1758,11.4603,10.5192,60.5044,0.0069,-0.5252,-0.8358,0.0217,-3.1094,-10.0977,-32.5748,327.67,327.67,21.4633
11.3,74.5713,15,-0.6017,-0.4015,0.1497,179.4067,-16.0345,207.9859,13.4,0.1674,74.0181,44.49254856,-79.18271832,-5.0898,10.125,11.2386,9.6658,61.0513,0.2878,-0.4968,-0.8217,0.0587,-3.7539,-12.875,-32.586,327.67,327.67,21.3022
11.35,73.5812,15,-0.6506,-0.4262,0.1484,178.4225,-17.4993,207.9882,13.4,0.1624,66.9215,44.49253958,-79.18271776,-3.207,13.3945,9.6562,8.7403,60.9144,0.2605,-0.7853,-0.8845,-0.3541,-3.5195,-15.5469,-32.5865,327.67,327.67,21.4133
11.4,72.7998,15,-0.6928,-0.4349,0.1534,177.3497,-18.8197,207.9878,13.4,0.16,61.5655,44.49253066,-79.18271692,-3.7686,14.2578,6.9202,7.2581,61.5219,0.1053,-1.1369,-0.8701,-1.2012,-3.0137,-17.3281,-32.5889,327.67,327.67,21.4267
11.45,72.211,15,-0.7287,-0.4287,0.1642,176.1953,-20.0067,207.9849,13.4,0.16,57.4445,44.49252179,-79.18271583,-4.8105,13.7031,8.1656,7.5216,61.3656,-0.4674,-1.123,-0.8752,-1.7554,-3.0781,-18.5078,-32.5867,327.67,327.67,21.0933
11.5,71.4632,15,-0.7746,-0.4248,0.1677,175.0846,-21.5014,207.9878,13.4,0.16,52.8975,44.49251307,-79.18271451,-5.1016,11.0586,7.9451,7.6921,61.2056,-0.889,-1.076,-0.824,-1.4229,-3.4336,-19.8438,-32.5832,327.67,327.67,20.9467
11.55,70.5687,15,-0.8298,-0.423,0.1645,174.0141,-23.2803,207.996,13.4,0.16,48.244,44.49250448,-79.182713,-4.8574,10.9766,7.9039,6.9746,61.0112,-0.5578,-1.0189,-0.8163,-1.0283,-3.3281,-21.0547,-32.5855,327.67,327.67,21.0578
11.6,69.7777,15,-0.8928,-0.4187,0.1716,172.7219,-25.3259,208.0018,13.4,0.1626,43.8502,44.49249601,-79.18271115,-2.2676,15.4883,7.4277,7.1243,61.1894,0.3273,-1.0066,-0.8271,-1.094,-2.3778,-22.1307,-32.588,327.67,327.67,21.1689
11.65,69.0821,15,-0.963,-0.4119,0.1884,171.2251,-27.6176,208.0055,13.4,0.1676,39.8106,44.49248766,-79.18270901,-5.0039,16.5469,9.1677,8.0598,61.2225,0.0286,-1.0018,-0.9276,-1.8309,-1.177,-23.3438,-32.5882,327.67,327.67,21.28
11.7,68.3867,15,-1.0121,-0.4057,0.2048,169.7339,-29.3364,208.0084,13.374,0.17,37.1009,44.49247944,-79.18270658,-6.8242,14.9648,9.0542,8.4961,61.2175,-0.149,-0.976,-0.9212,-3.0834,-0.9922,-24.4422,-32.5883,327.67,327.67,21.1633
11.75,67.6914,15,-1.0416,-0.3998,0.2207,168.2478,-30.5262,208.0104,13.324,0.17,35.2923,44.49247134,-79.18270387,-5.9375,13.8594,8.2755,8.2616,60.2825,-0.5205,-1.0475,-0.8676,-4.0027,-1.5791,-25.8312,-32.5876,327.67,327.67,21.0022
11.8,66.9016,15,-1.0545,-0.3987,0.2224,166.6575,-31.2405,208.0068,13.3,0.17,34.083,44.49246343,-79.18270079,-6.7305,14.3281,7.7881,7.5171,61.2831,-0.6925,-1.1293,-0.9425,-4.0492,-1.7601,-28.0438,-32.5906,327.67,327.67,21.1133
11.85,66.0244,15,-1.0521,-0.402,0.2109,164.9709,-31.5159,207.9981,13.3,0.17,33.3423,44.49245569,-79.18269736,-5.084,17.5781,9.2113,8.3127,61.2994,-0.497,-1.0871,-0.9961,-4.1156,-1.5016,-29.9656,-32.599,327.67,327.67,21.4689
11.9,65.2159,15,-1.0619,-0.4131,0.2081,163.2154,-32.1782,207.9957,13.3,0.17,32.2562,44.49244812,-79.18269364,-6.5059,14.7031,8.6441,7.8522,61.1162,0.3214,-1.0017,-0.7824,-4.4,-2.0553,-30.1594,-32.5939,327.67,327.67,22.6911
11.95,64.4708,15,-1.083,-0.4316,0.2134,161.3963,-33.1977,207.9993,13.3,0.17,30.9083,44.49244071,-79.18268966,-8.0469,11.1797,7.3129,6.303,61.4538,0.5579,-0.9448,-0.5945,-4.7117,-3.3152,-29.1688,-32.5884,327.67,327.67,23.4233
12,63.6843,15,-1.0975,-0.4309,0.2228,159.7575,-34.0546,208.0043,13.3,0.1726,29.763,44.49243348,-79.18268551,-7.6602,10.6328,6.7166,5.8737,61.1831,0.3772,-0.9434,-0.6777,-4.9492,-3.6426,-28.7031,-32.5897,327.67,327.67,23.4789
12.05,62.8596,15,-1.106,-0.4127,0.2361,158.285,-34.7616,208.0106,13.3,0.1776,28.7801,44.49242642,-79.18268121,-7.9941,10.3594,6.8152,6.2238,60.6719,0.1534,-0.7815,-0.8585,-4.4785,-3.1475,-28.7109,-32.5891,327.67,327.67,23.19
12.1,61.967,15,-1.1109,-0.3989,0.2318,156.7539,-35.3568,208.008,13.3,0.1826,27.8938,44.49241958,-79.18267665,-8.457,13.4453,5.8398,5.223,61.4381,0.1937,-0.7846,-0.9724,-4.0977,-3.0625,-28.3125,-32.5881,327.67,327.67,22.69
12.15,61.0116,15,-1.1127,-0.3892,0.2111,155.1685,-35.8489,207.9973,13.3,0.1876,27.0868,44.49241292,-79.18267186,-6.5586,14.1133,3.222,3.4787,61.8775,0.6107,-0.9219,-0.9949,-4.2969,-2.9385,-27.9375,-32.5862,327.67,327.67,22.8733
12.2,60.4006,15,-1.1265,-0.3616,0.2195,153.0999,-36.7434,208.0024,13.3,0.1926,26.1627,44.49240642,-79.18266661,-7.6875,13.2539,1.4723,0.972,60.9806,0.5215,-1.1063,-1.0798,-4.6523,-2.4258,-27.6406,-32.585,327.67,327.67,23.1889
12.25,60.1075,15,-1.1514,-0.3174,0.2548,150.5853,-38.0094,208.022,13.3,0.1976,25.1685,44.49240007,-79.18266092,-7.9629,12.9453,0.5778,0.4727,61.6356,0.1983,-1.3344,-0.9648,-5.0781,-1.9424,-26.7266,-32.5812,327.67,327.67,22.6333
12.3,59.7377,15,-1.1637,-0.2757,0.2645,148.5291,-38.8309,208.0278,13.3,0.2,24.4845,44.4923939,-79.1826551,-7.5352,12.2305,0.3353,0.4812,61.3462,-0.3669,-1.4045,-0.8781,-5.5703,-1.8809,-25.1562,-32.5783,327.67,327.67,22.3467
12.35,59.2972,15,-1.1646,-0.2362,0.2508,146.8961,-39.2419,208.0208,13.3,0.2,24.0494,44.49238791,-79.18264917,-8.5547,9.1992,0.5878,0.5328,61.7944,-0.0002,-1.2384,-0.8874,-5.5195,-2.1113,-23.8906,-32.5806,327.67,327.67,23.0133
12.4,58.899,15,-1.1532,-0.1999,0.2411,145.048,-39.1946,208.0115,13.3,0.1922,23.9167,44.49238213,-79.1826429,-8.3008,14.9375,0.8456,1.3254,60.55,0.4105,-1.1203,-0.9871,-5.4036,-1.7194,-23.5859,-32.5849,327.67,327.67,23.3533
12.45,58.5397,15,-1.1307,-0.1666,0.235,143.0012,-38.7241,208,13.3,0.1772,24.0597,44.49237656,-79.18263631,-6.4785,15.3828,2.4375,2.8194,60.9075,-0.3297,-1.2551,-0.9688,-4.659,-0.5372,-24.2859,-32.5937,327.67,327.67,23.2422
12.5,58.1359,15,-1.097,-0.1386,0.2442,140.9948,-37.8163,207.9986,13.3,0.1674,24.4673,44.49237119,-79.18262959,-6.1973,14.207,3.1122,2.8636,61.8237,-0.5218,-1.3398,-1.0519,-3.2488,0.0847,-24.7469,-32.5929,327.67,327.67,23.0278
12.55,57.691,15,-1.0531,-0.1153,0.2676,139.0257,-36.5048,208.0067,13.3,0.1624,25.1523,44.49236601,-79.18262277,-6.4355,10.7656,1.6893,1.8477,60.5894,0.2928,-0.9663,-0.8398,-2.2689,-0.6259,-23.9859,-32.5839,327.67,327.67,22.75
12.6,57.3716,14,-1.0002,-0.1143,0.2748,137.4572,-34.8393,208.007,13.3,0.16,26.2088,44.4923609,-79.18261578,-10.0352,6.0469,1.7099,1.6839,61.5019,0.5247,-0.6927,-0.6284,-1.9318,-2.1518,-22.6656,-32.5776,327.67,327.67,23.3378
12.65,57.1681,14,-0.9392,-0.1339,0.2671,136.2586,-32.8471,208.0002,13.3,0.16,27.6999,44.49235585,-79.18260865,-9.5977,9.7539,1.682,1.8316,61.505,0.3823,-0.7763,-0.7781,-2.6902,-3.3555,-21.775,-32.5794,327.67,327.67,24.09
12.7,56.9201,14,-0.8988,-0.1555,0.2396,134.947,-31.5867,207.9853,13.3,0.1574,28.6802,44.49235097,-79.18260138,-8.5078,10.0938,3.0096,3.3765,61.1481,-0.2561,-0.8395,-0.9055,-3.8703,-3.7027,-21.8031,-32.5846,327.67,327.67,23.59
12.75,56.6311,14,-0.8777,-0.179,0.1938,133.5309,-31.002,207.963,13.3,0.1524,29.0727,44.49234624,-79.18259397,-6.748,11.4609,4.013,3.8936,61.9738,-0.3173,-0.8935,-0.9782,-4.557,-3.4229,-22.4562,-32.5876,327.67,327.67,23.2611
12.8,56.3596,14,-0.8804,-0.1757,0.1841,131.7478,-31.2904,207.9552,13.3,0.15,28.6666,44.49234179,-79.18258637,-2.6396,15.6406,3.0252,3.0196,61.5175,-0.2685,-0.9699,-1.1539,-4.582,-2.1094,-23.7188,-32.5897,327.67,327.67,23.5389
12.85,56.1042,14,-0.9051,-0.1479,0.2076,129.6258,-32.385,207.9608,13.3,0.15,27.5722,44.49233757,-79.18257859,-4.4805,14.25,3.486,3.3811,60.8931,-0.2313,-0.926,-1.1023,-4.083,-0.4579,-25,-32.5876,327.67,327.67,23.4667
12.9,55.7326,14,-0.9096,-0.1426,0.2408,127.8419,-32.7308,207.9718,13.274,0.15,27.1002,44.49233354,-79.18257078,-5.5117,12.6406,2.5371,2.258,62.0944,-0.3378,-0.9764,-0.8965,-3.4316,0.4377,-25.75,-32.5816,327.67,327.67,22.9111
12.95,55.2538,14,-0.8955,-0.1581,0.283,126.3702,-32.3855,207.9879,13.224,0.15,27.1539,44.49232968,-79.18256296,-4.7598,12.3867,1.5879,1.3056,61.1194,0.1712,-0.9361,-0.8581,-3.0703,0.783,-26.0234,-32.5777,327.67,327.67,23.0789
13,54.8811,14,-0.9041,-0.1603,0.2997,124.7334,-32.8879,207.9992,13.2,0.1474,26.5587,44.49232602,-79.18255502,-4.9453,10.3359,0.5843,0.2306,60.9881,0.7097,-1.0038,-0.8916,-2.8125,0.9546,-26.0156,-32.5741,327.67,327.67,23.69
13.05,54.6063,14,-0.9337,-0.1501,0.2928,122.9441,-34.173,208.0061,13.2,0.1424,25.4319,44.49232256,-79.18254698,-6.3984,10.3633,0.2061,0.1778,60.3763,0.1078,-0.9208,-0.9406,-2.6826,0.5831,-25.8047,-32.5857,327.67,327.67,23.4356
13.1,54.3319,14,-0.9549,-0.146,0.2878,121.2376,-35.1478,208.0141,13.2,0.14,24.6023,44.49231928,-79.1825388,-6.4941,10.2734,0.1913,0.2713,61.3394,-0.8687,-1.0061,-1.01,-2.7109,-0.2407,-25.875,-32.5902,327.67,327.67,23.0033
13.15,54.0578,14,-0.9681,-0.1477,0.2844,119.6075,-35.8363,208.0231,13.2,0.14,24.008,44.49231617,-79.1825305,-8.5312,8.1953,0.3019,0.2743,60.7981,-1.2676,-0.9955,-0.883,-2.6436,-1.377,-26.4609,-32.5889,327.67,327.67,23.17
13.2,53.7652,14,-0.9649,-0.1507,0.2956,117.918,-35.9193,208.0341,13.2,0.1426,23.8228,44.49231327,-79.18252213,-8.8281,8.8906,0.4128,0.542,61.0213,-0.8478,-1.0873,-0.7982,-2.877,-2.3691,-27.7031,-32.5865,327.67,327.67,23.2878
13.25,53.4554,14,-0.9466,-0.1549,0.3202,116.1738,-35.4436,208.0473,13.2,0.1476,24.0035,44.49231057,-79.1825137,-7.9199,9.168,0.4404,0.4641,60.4331,-0.5713,-1.1562,-0.7568,-3.46,-2.8262,-29.1172,-32.5882,327.67,327.67,23.2322
13.3,53.1559,14,-0.949,-0.1542,0.3195,114.3418,-35.7515,208.0501,13.2,0.1474,23.6635,44.49230809,-79.18250515,-9.0625,8.8086,0.6437,0.677,61.3812,-0.8316,-1.0758,-0.7747,-4.2383,-3.4453,-29.875,-32.5902,327.67,327.67,24.2033
13.35,52.8659,14,-0.9703,-0.1489,0.2955,112.4287,-36.7827,208.0436,13.2,0.1424,22.8746,44.49230582,-79.18249647,-6.7793,12.5352,0.6017,0.7143,61.9069,-1.2867,-1.051,-0.8785,-4.7207,-3.5596,-30.7891,-32.596,327.67,327.67,26.5922
13.4,52.5529,14,-1.0007,-0.1298,0.2905,110.3964,-38.1664,208.0439,13.174,0.14,21.9147,44.49230384,-79.18248779,-6.4766,14.0547,0.7464,0.7685,60.9263,-1.2477,-1.079,-0.9788,-4.4375,-2.4219,-32.5938,-32.5982,327.67,327.67,29.1533
